{
"type": "FeatureCollection",
"name": "Yarn_Crawl_2019",
"crs": { "type": "name", "properties": { "name": "urn:ogc:def:crs:OGC:1.3:CRS84" } },
"bbox": [ -84.9679336529226, 35.7562523299561, -82.9042771614766, 43.589374514203 ],                                               
"features": [
{ "type": "Feature", "properties": { "StoreName": "2 Point Farm Alpacas", "Address": "6330 Warsaw Rd.", "City": "Dry Ridge", "State": "Kentucky", "Zip": "41035", "st": "k", "Phone": "718-467-1614", "Site": "https:\/\/www.2pointfarmalpacas.com\/", "lbl": "2 Point Farm Alpacas 6330 Warsaw Rd. Dry Ridge, Kentucky 41035 718-467-1614 https:\/\/www.2pointfarmalpacas.com\/", "lat": -84.710621564999997, "lon": 38.694964726400002 }, "bbox": [ -84.71062157, 38.69496473, -84.71062157, 38.69496473 ], "geometry": { "type": "Point", "coordinates": [ -84.71062157, 38.69496473 ] } },
{ "type": "Feature", "properties": { "StoreName": "614 Knit Studio", "Address": "4400 Indianola ave", "City": "Columbus", "State": "Ohio", "Zip": "43214", "st": "o", "Phone": "614-670-5629", "Site": "https:\/\/614knitstudio.com\/", "lbl": "614 Knit Studio 4400 Indianola ave Columbus, Ohio 43214 614-670-5629 https:\/\/614knitstudio.com\/", "lat": -83.000278311200006, "lon": 40.054519236499999 }, "bbox": [ -83.00027831, 40.05451924, -83.00027831, 40.05451924 ], "geometry": { "type": "Point", "coordinates": [ -83.00027831, 40.05451924 ] } },
{ "type": "Feature", "properties": { "StoreName": "A Piece of Ewe", "Address": "506 Columbus Ave.", "City": "Bay City", "State": "Michigan", "Zip": "48708", "st": "m", "Phone": "989-892-6400", "Site": "http:\/\/www.apieceofewe.com\/", "lbl": "A Piece of Ewe 506 Columbus Ave. Bay City, Michigan 48708 989-892-6400 http:\/\/www.apieceofewe.com\/", "lat": -83.887271444999996, "lon": 43.589374514200003 }, "bbox": [ -83.88727145, 43.58937451, -83.88727145, 43.58937451 ], "geometry": { "type": "Point", "coordinates": [ -83.88727145, 43.58937451 ] } },
{ "type": "Feature", "properties": { "StoreName": "Ann's By Design", "Address": "118 W. Maumee St.", "City": "Adrian", "State": "Michigan", "Zip": "49221", "st": "m", "Phone": "517-438-8459", "Site": "https:\/\/annsbydesign.com", "lbl": "Ann's By Design 118 W. Maumee St. Adrian, Michigan 49221 517-438-8459 https:\/\/annsbydesign.com", "lat": -84.0367529687, "lon": 41.898970644099997 }, "bbox": [ -84.03675297, 41.89897064, -84.03675297, 41.89897064 ], "geometry": { "type": "Point", "coordinates": [ -84.03675297, 41.89897064 ] } },
{ "type": "Feature", "properties": { "StoreName": "Appalachian Yarn Company", "Address": "639 McGuire Rd.", "City": "New Market", "State": "Tennessee", "Zip": "37820", "st": "t", "Phone": "937-430-0603", "Site": "Appalachian Yarn Company", "lbl": "Appalachian Yarn Company 639 McGuire Rd. New Market, Tennessee 37820 937-430-0603 Appalachian Yarn Company", "lat": -83.494875438799994, "lon": 36.058254599100003 }, "bbox": [ -83.49487544, 36.0582546, -83.49487544, 36.0582546 ], "geometry": { "type": "Point", "coordinates": [ -83.49487544, 36.0582546 ] } },
{ "type": "Feature", "properties": { "StoreName": "Back Alley Fibers", "Address": "142 N. State St.", "City": "Caro", "State": "Michigan", "Zip": "48723", "st": "m", "Phone": "989-672-2144", "Site": "http:\/\/www.backalleyfibers.com\/", "lbl": "Back Alley Fibers 142 N. State St. Caro, Michigan 48723 989-672-2144 http:\/\/www.backalleyfibers.com\/", "lat": -83.395958958700007, "lon": 43.489226927399997 }, "bbox": [ -83.39595896, 43.48922693, -83.39595896, 43.48922693 ], "geometry": { "type": "Point", "coordinates": [ -83.39595896, 43.48922693 ] } },
{ "type": "Feature", "properties": { "StoreName": "Bad Amy Knits", "Address": "5225 Secor Rd. Suite 3", "City": "Toledo", "State": "Ohio", "Zip": "43623", "st": "o", "Phone": "419-250-5026", "Site": "https:\/\/www.facebook.com\/BadAmyKnits", "lbl": "Bad Amy Knits 5225 Secor Rd. Suite 3 Toledo, Ohio 43623 419-250-5026 https:\/\/www.facebook.com\/BadAmyKnits", "lat": -83.623848268299994, "lon": 41.710625161700001 }, "bbox": [ -83.62384827, 41.71062516, -83.62384827, 41.71062516 ], "geometry": { "type": "Point", "coordinates": [ -83.62384827, 41.71062516 ] } },
{ "type": "Feature", "properties": { "StoreName": "Behind The Pines", "Address": "139 W Front St.", "City": "Pemberville", "State": "Ohio", "Zip": "43450", "st": "o", "Phone": "419-872-9276", "Site": "https:\/\/www.globuya.com\/US\/Pemberville\/307772262751370\/Behind-the-Pines", "lbl": "Behind The Pines 139 W Front St. Pemberville, Ohio 43450 419-872-9276 https:\/\/www.globuya.com\/US\/Pemberville\/307772262751370\/Behind-the-Pines", "lat": -83.4619982161, "lon": 41.408991050600001 }, "bbox": [ -83.46199822, 41.40899105, -83.46199822, 41.40899105 ], "geometry": { "type": "Point", "coordinates": [ -83.46199822, 41.40899105 ] } },
{ "type": "Feature", "properties": { "StoreName": "Clinch River Yarn Company", "Address": "725 N. Charles G. Seivers Blvd.", "City": "Clinton", "State": "Tennessee", "Zip": "37716", "st": "t", "Phone": "865-269-4528", "Site": "http:\/\/www.clinchriveryarns.com\/", "lbl": "Clinch River Yarn Company 725 N. Charles G. Seivers Blvd. Clinton, Tennessee 37716 865-269-4528 http:\/\/www.clinchriveryarns.com\/", "lat": -84.125582468700003, "lon": 36.1094936983 }, "bbox": [ -84.12558247, 36.1094937, -84.12558247, 36.1094937 ], "geometry": { "type": "Point", "coordinates": [ -84.12558247, 36.1094937 ] } },
{ "type": "Feature", "properties": { "StoreName": "Crafty Lady Trio", "Address": "15401 Hall Rd.", "City": "Macomb", "State": "Michigan", "Zip": "48044", "st": "m", "Phone": "586-566-8008", "Site": "https:\/\/www.craftyladytrio.com\/", "lbl": "Crafty Lady Trio 15401 Hall Rd. Macomb, Michigan 48044 586-566-8008 https:\/\/www.craftyladytrio.com\/", "lat": -82.971111030800003, "lon": 42.627957852400002 }, "bbox": [ -82.97111103, 42.62795785, -82.97111103, 42.62795785 ], "geometry": { "type": "Point", "coordinates": [ -82.97111103, 42.62795785 ] } },
{ "type": "Feature", "properties": { "StoreName": "Crafty Needle Yarns", "Address": "364 Rice St", "City": "Elmore", "State": "Ohio", "Zip": "43416", "st": "o", "Phone": "419-862-0333", "Site": "http:\/\/craftyneedleyarns.com\/", "lbl": "Crafty Needle Yarns 364 Rice St Elmore, Ohio 43416 419-862-0333 http:\/\/craftyneedleyarns.com\/", "lat": -83.294952942400002, "lon": 41.475610289800002 }, "bbox": [ -83.29495294, 41.47561029, -83.29495294, 41.47561029 ], "geometry": { "type": "Point", "coordinates": [ -83.29495294, 41.47561029 ] } },
{ "type": "Feature", "properties": { "StoreName": "Deep Dyed Yarns", "Address": "605 N. Main St.", "City": "Nicholasville", "State": "Kentucky", "Zip": "40356", "st": "k", "Phone": "859-885-5426", "Site": "https:\/\/www.deepdyedyarns.com\/", "lbl": "Deep Dyed Yarns 605 N. Main St. Nicholasville, Kentucky 40356 859-885-5426 https:\/\/www.deepdyedyarns.com\/", "lat": -84.569934219199993, "lon": 37.8878600213 }, "bbox": [ -84.56993422, 37.88786002, -84.56993422, 37.88786002 ], "geometry": { "type": "Point", "coordinates": [ -84.56993422, 37.88786002 ] } },
{ "type": "Feature", "properties": { "StoreName": "Eagle Bend Alpaca Farm", "Address": "7812 E. Bend Rd.", "City": "Burlington", "State": "Kentucky", "Zip": "41005", "st": "k", "Phone": "859-750-3560", "Site": "https:\/\/www.eaglebendalpacas.com\/", "lbl": "Eagle Bend Alpaca Farm 7812 E. Bend Rd. Burlington, Kentucky 41005 859-750-3560 https:\/\/www.eaglebendalpacas.com\/", "lat": -84.751307156300001, "lon": 38.978279405000002 }, "bbox": [ -84.75130716, 38.9782794, -84.75130716, 38.9782794 ], "geometry": { "type": "Point", "coordinates": [ -84.75130716, 38.9782794 ] } },
{ "type": "Feature", "properties": { "StoreName": "Ewe-nique Knits", "Address": "515 S. Lafayette Ave.", "City": "Royal Oak", "State": "Michigan", "Zip": "48067", "st": "m", "Phone": "248-584-3001", "Site": "https:\/\/ewe-niqueknits.com\/", "lbl": "Ewe-nique Knits 515 S. Lafayette Ave. Royal Oak, Michigan 48067 248-584-3001 https:\/\/ewe-niqueknits.com\/", "lat": -83.147706301400007, "lon": 42.485715450400001 }, "bbox": [ -83.1477063, 42.48571545, -83.1477063, 42.48571545 ], "geometry": { "type": "Point", "coordinates": [ -83.1477063, 42.48571545 ] } },
{ "type": "Feature", "properties": { "StoreName": "Fiber and Fusion", "Address": "11180 N. Dixie Dr.", "City": "Vandalia", "State": "Ohio", "Zip": "45377", "st": "o", "Phone": "937-602-3248", "Site": "http:\/\/www.fiberandfusion.com\/", "lbl": "Fiber and Fusion 11180 N. Dixie Dr. Vandalia, Ohio 45377 937-602-3248 http:\/\/www.fiberandfusion.com\/", "lat": -84.199255287699998, "lon": 39.910761021399999 }, "bbox": [ -84.19925529, 39.91076102, -84.19925529, 39.91076102 ], "geometry": { "type": "Point", "coordinates": [ -84.19925529, 39.91076102 ] } },
{ "type": "Feature", "properties": { "StoreName": "Fiber Frenzy", "Address": "137A North Broadway", "City": "Berea", "State": "Kentucky", "Zip": "40403", "st": "k", "Phone": "859-986-3832", "Site": "http:\/\/fiberfrenzy.net\/", "lbl": "Fiber Frenzy 137A North Broadway Berea, Kentucky 40403 859-986-3832 http:\/\/fiberfrenzy.net\/", "lat": -84.299040940899999, "lon": 37.569169305400003 }, "bbox": [ -84.29904094, 37.56916931, -84.29904094, 37.56916931 ], "geometry": { "type": "Point", "coordinates": [ -84.29904094, 37.56916931 ] } },
{ "type": "Feature", "properties": { "StoreName": "Fiber Optics", "Address": "726 Mohawk Trail", "City": "Miford", "State": "Ohio", "Zip": "45150", "st": "o", "Phone": "513-248-0752", "Site": "https:\/\/kimberbaldwindesigns.com\/", "lbl": "Fiber Optics 726 Mohawk Trail Miford, Ohio 45150 513-248-0752 https:\/\/kimberbaldwindesigns.com\/", "lat": -84.278990010100003, "lon": 39.175374592499999 }, "bbox": [ -84.27899001, 39.17537459, -84.27899001, 39.17537459 ], "geometry": { "type": "Point", "coordinates": [ -84.27899001, 39.17537459 ] } },
{ "type": "Feature", "properties": { "StoreName": "Fiberworks", "Address": "1350A N. Fairfield Rd", "City": "Beavercreek", "State": "Ohio", "Zip": "45432", "st": "o", "Phone": "937-429-9276", "Site": "https:\/\/fiberworksdayton.wordpress.com\/", "lbl": "Fiberworks 1350A N. Fairfield Rd Beavercreek, Ohio 45432 937-429-9276 https:\/\/fiberworksdayton.wordpress.com\/", "lat": -84.057289874600002, "lon": 39.728955481 }, "bbox": [ -84.05728987, 39.72895548, -84.05728987, 39.72895548 ], "geometry": { "type": "Point", "coordinates": [ -84.05728987, 39.72895548 ] } },
{ "type": "Feature", "properties": { "StoreName": "Hank Yarn", "Address": "2651 Observatory Ave.", "City": "Cincinnati", "State": "Ohio", "Zip": "45208", "st": "o", "Phone": "513-386-9869", "Site": "https:\/\/www.hankyarn.com\/", "lbl": "Hank Yarn 2651 Observatory Ave. Cincinnati, Ohio 45208 513-386-9869 https:\/\/www.hankyarn.com\/", "lat": -84.443872531300002, "lon": 39.137556532600001 }, "bbox": [ -84.44387253, 39.13755653, -84.44387253, 39.13755653 ], "geometry": { "type": "Point", "coordinates": [ -84.44387253, 39.13755653 ] } },
{ "type": "Feature", "properties": { "StoreName": "Have You Any Wool?", "Address": "3455 Robina Ave.", "City": "Berkeley", "State": "Michigan", "Zip": "48072", "st": "m", "Phone": "248-541-9665", "Site": "http:\/\/www.haveyouanywoolmi.com\/", "lbl": "Have You Any Wool? 3455 Robina Ave. Berkeley, Michigan 48072 248-541-9665 http:\/\/www.haveyouanywoolmi.com\/", "lat": -83.189527853599998, "lon": 42.503445508699997 }, "bbox": [ -83.18952785, 42.50344551, -83.18952785, 42.50344551 ], "geometry": { "type": "Point", "coordinates": [ -83.18952785, 42.50344551 ] } },
{ "type": "Feature", "properties": { "StoreName": "Heritage Spinning and Weaving", "Address": "47 E. Flint St.", "City": "Lake Orion", "State": "Michigan", "Zip": "48362", "st": "m", "Phone": "248-693-3690", "Site": "https:\/\/heritagespinning.com\/", "lbl": "Heritage Spinning and Weaving 47 E. Flint St. Lake Orion, Michigan 48362 248-693-3690 https:\/\/heritagespinning.com\/", "lat": -83.238812528400004, "lon": 42.7847004674 }, "bbox": [ -83.23881253, 42.78470047, -83.23881253, 42.78470047 ], "geometry": { "type": "Point", "coordinates": [ -83.23881253, 42.78470047 ] } },
{ "type": "Feature", "properties": { "StoreName": "Hook and Needle Studio", "Address": "113 West Harper Ave.", "City": "Maryville", "State": "Tennessee", "Zip": "37801", "st": "t", "Phone": "865-268-5003", "Site": "https:\/\/www.hookandneedleyarnstudio.com\/", "lbl": "Hook and Needle Studio 113 West Harper Ave. Maryville, Tennessee 37801 865-268-5003 https:\/\/www.hookandneedleyarnstudio.com\/", "lat": -83.972027363600006, "lon": 35.75625233 }, "bbox": [ -83.97202736, 35.75625233, -83.97202736, 35.75625233 ], "geometry": { "type": "Point", "coordinates": [ -83.97202736, 35.75625233 ] } },
{ "type": "Feature", "properties": { "StoreName": "Knit On!", "Address": "735 Monmouth", "City": "Newport", "State": "Kentucky", "Zip": "41071", "st": "k", "Phone": "859-291-5648", "Site": "http:\/\/knit-on.com\/index.html", "lbl": "Knit On! 735 Monmouth Newport, Kentucky 41071 859-291-5648 http:\/\/knit-on.com\/index.html", "lat": -84.491577672299996, "lon": 39.089442718199997 }, "bbox": [ -84.49157767, 39.08944272, -84.49157767, 39.08944272 ], "geometry": { "type": "Point", "coordinates": [ -84.49157767, 39.08944272 ] } },
{ "type": "Feature", "properties": { "StoreName": "Knitting Temptations", "Address": "35 S. High St.", "City": "Dublin", "State": "Ohio", "Zip": "43016", "st": "o", "Phone": "614-734-0618", "Site": "http:\/\/www.knittingtemptations.com\/", "lbl": "Knitting Temptations 35 S. High St. Dublin, Ohio 43016 614-734-0618 http:\/\/www.knittingtemptations.com\/", "lat": -83.1136588002, "lon": 40.098840192600001 }, "bbox": [ -83.1136588, 40.09884019, -83.1136588, 40.09884019 ], "geometry": { "type": "Point", "coordinates": [ -83.1136588, 40.09884019 ] } },
{ "type": "Feature", "properties": { "StoreName": "Knoddy Knitters", "Address": "6410 Asheville Hwy", "City": "Knoxville", "State": "Tennessee", "Zip": "37924", "st": "t", "Phone": "865-240-3580", "Site": "https:\/\/www.facebook.com\/Knoddy-Knitters-253040705401585\/", "lbl": "Knoddy Knitters 6410 Asheville Hwy Knoxville, Tennessee 37924 865-240-3580 https:\/\/www.facebook.com\/Knoddy-Knitters-253040705401585\/", "lat": -83.819244546600004, "lon": 36.017283722499997 }, "bbox": [ -83.81924455, 36.01728372, -83.81924455, 36.01728372 ], "geometry": { "type": "Point", "coordinates": [ -83.81924455, 36.01728372 ] } },
{ "type": "Feature", "properties": { "StoreName": "Lambikins Hideaway", "Address": "217 S. B St.", "City": "Hamilton", "State": "Ohio", "Zip": "45013", "st": "o", "Phone": "513-895-5648", "Site": "http:\/\/www.lambikinshideaway.com\/", "lbl": "Lambikins Hideaway 217 S. B St. Hamilton, Ohio 45013 513-895-5648 http:\/\/www.lambikinshideaway.com\/", "lat": -84.569411193999997, "lon": 39.400339861 }, "bbox": [ -84.56941119, 39.40033986, -84.56941119, 39.40033986 ], "geometry": { "type": "Point", "coordinates": [ -84.56941119, 39.40033986 ] } },
{ "type": "Feature", "properties": { "StoreName": "Loopville", "Address": "5204 Kingston Pike, Ste 1", "City": "Knoxville", "State": "Tennessee", "Zip": "37919", "st": "t", "Phone": "865-584-9772", "Site": "https:\/\/www.loopvilleyarn.com\/", "lbl": "Loopville 5204 Kingston Pike, Ste 1 Knoxville, Tennessee 37919 865-584-9772 https:\/\/www.loopvilleyarn.com\/", "lat": -83.989163474199998, "lon": 35.938332463899997 }, "bbox": [ -83.98916347, 35.93833246, -83.98916347, 35.93833246 ], "geometry": { "type": "Point", "coordinates": [ -83.98916347, 35.93833246 ] } },
{ "type": "Feature", "properties": { "StoreName": "Magpie Yarn", "Address": "513 E. High St.", "City": "Lexington", "State": "Kentucky", "Zip": "40502", "st": "k", "Phone": "859-455-7437", "Site": "https:\/\/magpieyarn.com\/", "lbl": "Magpie Yarn 513 E. High St. Lexington, Kentucky 40502 859-455-7437 https:\/\/magpieyarn.com\/", "lat": -84.492602258399998, "lon": 38.036309395099998 }, "bbox": [ -84.49260226, 38.0363094, -84.49260226, 38.0363094 ], "geometry": { "type": "Point", "coordinates": [ -84.49260226, 38.0363094 ] } },
{ "type": "Feature", "properties": { "StoreName": "Main St. Yarns", "Address": "126 W. Main St.", "City": "Mason", "State": "Ohio", "Zip": "45040", "st": "o", "Phone": "513-204-0078", "Site": "http:\/\/www.mainstreetyarnsmason.com\/", "lbl": "Main St. Yarns 126 W. Main St. Mason, Ohio 45040 513-204-0078 http:\/\/www.mainstreetyarnsmason.com\/", "lat": -84.310353052500005, "lon": 39.360327442 }, "bbox": [ -84.31035305, 39.36032744, -84.31035305, 39.36032744 ], "geometry": { "type": "Point", "coordinates": [ -84.31035305, 39.36032744 ] } },
{ "type": "Feature", "properties": { "StoreName": "Michigan Fine Yarn", "Address": "37519 Ann Arbor Rd", "City": "Livonia", "State": "Michigan", "Zip": "48150", "st": "m", "Phone": "734-462-2800", "Site": "http:\/\/www.miknitboutique.com\/", "lbl": "Michigan Fine Yarn 37519 Ann Arbor Rd Livonia, Michigan 48150 734-462-2800 http:\/\/www.miknitboutique.com\/", "lat": -83.412285227200002, "lon": 42.364005609800003 }, "bbox": [ -83.41228523, 42.36400561, -83.41228523, 42.36400561 ], "geometry": { "type": "Point", "coordinates": [ -83.41228523, 42.36400561 ] } },
{ "type": "Feature", "properties": { "StoreName": "Native Twist", "Address": "31 S. Maysville Rd.", "City": "Mt. Sterling", "State": "Kentucky", "Zip": "40353", "st": "k", "Phone": "859-432-8133", "Site": "https:\/\/www.nativetwiststudio.com\/#\/", "lbl": "Native Twist 31 S. Maysville Rd. Mt. Sterling, Kentucky 40353 859-432-8133 https:\/\/www.nativetwiststudio.com\/#\/", "lat": -83.942194990399997, "lon": 38.056943965000002 }, "bbox": [ -83.94219499, 38.05694397, -83.94219499, 38.05694397 ], "geometry": { "type": "Point", "coordinates": [ -83.94219499, 38.05694397 ] } },
{ "type": "Feature", "properties": { "StoreName": "Rapunzel Boutique", "Address": "664 South Main St.", "City": "Frankenmuth", "State": "Michigan", "Zip": "48734", "st": "m", "Phone": "989-652-0464", "Site": "https:\/\/www.rapunzelsfrankenmuth.com\/", "lbl": "Rapunzel Boutique 664 South Main St. Frankenmuth, Michigan 48734 989-652-0464 https:\/\/www.rapunzelsfrankenmuth.com\/", "lat": -83.740331700900001, "lon": 43.327256038999998 }, "bbox": [ -83.7403317, 43.32725604, -83.7403317, 43.32725604 ], "geometry": { "type": "Point", "coordinates": [ -83.7403317, 43.32725604 ] } },
{ "type": "Feature", "properties": { "StoreName": "ReBelle", "Address": "225 Rosemont", "City": "Lexington", "State": "Kentucky", "Zip": "40503", "st": "k", "Phone": "859-389-9750", "Site": "http:\/\/rebellegirls.com\/", "lbl": "ReBelle 225 Rosemont Lexington, Kentucky 40503 859-389-9750 http:\/\/rebellegirls.com\/", "lat": -84.522192691100003, "lon": 38.019490133799998 }, "bbox": [ -84.52219269, 38.01949013, -84.52219269, 38.01949013 ], "geometry": { "type": "Point", "coordinates": [ -84.52219269, 38.01949013 ] } },
{ "type": "Feature", "properties": { "StoreName": "River Hill Ranch", "Address": "680 River Hill Drive", "City": "Richmond", "State": "Kentucky", "Zip": "40475", "st": "k", "Phone": "859-408-5132", "Site": "https:\/\/www.riverhillranch.us\/", "lbl": "River Hill Ranch 680 River Hill Drive Richmond, Kentucky 40475 859-408-5132 https:\/\/www.riverhillranch.us\/", "lat": -84.357350374000006, "lon": 37.867938586500003 }, "bbox": [ -84.35735037, 37.86793859, -84.35735037, 37.86793859 ], "geometry": { "type": "Point", "coordinates": [ -84.35735037, 37.86793859 ] } },
{ "type": "Feature", "properties": { "StoreName": "Sew To Speak", "Address": "752 High St.", "City": "Worthington", "State": "Ohio", "Zip": "43085", "st": "o", "Phone": "614-549-4428", "Site": "https:\/\/sewtospeakshoppe.com\/", "lbl": "Sew To Speak 752 High St. Worthington, Ohio 43085 614-549-4428 https:\/\/sewtospeakshoppe.com\/", "lat": -83.0174645962, "lon": 40.089364910100002 }, "bbox": [ -83.0174646, 40.08936491, -83.0174646, 40.08936491 ], "geometry": { "type": "Point", "coordinates": [ -83.0174646, 40.08936491 ] } },
{ "type": "Feature", "properties": { "StoreName": "Silk Road Textiles", "Address": "6106 Hamilton Ave.", "City": "Cincinnati", "State": "Ohio", "Zip": "45224", "st": "o", "Phone": "513 541-3700", "Site": "http:\/\/silkroadcincinnati.com\/", "lbl": "Silk Road Textiles 6106 Hamilton Ave. Cincinnati, Ohio 45224 513 541-3700 http:\/\/silkroadcincinnati.com\/", "lat": -84.547627514599995, "lon": 39.202047754200002 }, "bbox": [ -84.54762751, 39.20204775, -84.54762751, 39.20204775 ], "geometry": { "type": "Point", "coordinates": [ -84.54762751, 39.20204775 ] } },
{ "type": "Feature", "properties": { "StoreName": "Skeins on Main", "Address": "428 S. Main St.", "City": "Rochester", "State": "Michigan", "Zip": "48307", "st": "m", "Phone": "248-656-9300", "Site": "https:\/\/www.skeinsonmain.com\/", "lbl": "Skeins on Main 428 S. Main St. Rochester, Michigan 48307 248-656-9300 https:\/\/www.skeinsonmain.com\/", "lat": -83.133754746400001, "lon": 42.681519146799999 }, "bbox": [ -83.13375475, 42.68151915, -83.13375475, 42.68151915 ], "geometry": { "type": "Point", "coordinates": [ -83.13375475, 42.68151915 ] } },
{ "type": "Feature", "properties": { "StoreName": "Spinning Moon Farm", "Address": "202 S. Lane St.", "City": "Blissfield", "State": "Michigan", "Zip": "49228", "st": "m", "Phone": "517-902-1945", "Site": "http:\/\/spinningmoonfarm.tripod.com\/", "lbl": "Spinning Moon Farm 202 S. Lane St. Blissfield, Michigan 49228 517-902-1945 http:\/\/spinningmoonfarm.tripod.com\/", "lat": -83.863385044899999, "lon": 41.8312936409 }, "bbox": [ -83.86338504, 41.83129364, -83.86338504, 41.83129364 ], "geometry": { "type": "Point", "coordinates": [ -83.86338504, 41.83129364 ] } },
{ "type": "Feature", "properties": { "StoreName": "Spun", "Address": "407 N. 5th Ave", "City": "Ann Arbor", "State": "Michigan", "Zip": "48104", "st": "m", "Phone": "734-780-7867", "Site": "http:\/\/www.spunannarbor.com\/", "lbl": "Spun 407 N. 5th Ave Ann Arbor, Michigan 48104 734-780-7867 http:\/\/www.spunannarbor.com\/", "lat": -83.745931421099996, "lon": 42.284239495000001 }, "bbox": [ -83.74593142, 42.2842395, -83.74593142, 42.2842395 ], "geometry": { "type": "Point", "coordinates": [ -83.74593142, 42.2842395 ] } },
{ "type": "Feature", "properties": { "StoreName": "Stitch In Time", "Address": "722 E. Grand River Ave.", "City": "Howell", "State": "Michigan", "Zip": "48843", "st": "m", "Phone": "517-546-0769", "Site": "http:\/\/stitchintimehowell.com\/", "lbl": "Stitch In Time 722 E. Grand River Ave. Howell, Michigan 48843 517-546-0769 http:\/\/stitchintimehowell.com\/", "lat": -83.922452655200004, "lon": 42.604575640699998 }, "bbox": [ -83.92245266, 42.60457564, -83.92245266, 42.60457564 ], "geometry": { "type": "Point", "coordinates": [ -83.92245266, 42.60457564 ] } },
{ "type": "Feature", "properties": { "StoreName": "Strings Attached", "Address": "225 N. Main St.", "City": "Dayton", "State": "Ohio", "Zip": "45402", "st": "o", "Phone": "937-221-9585", "Site": "http:\/\/stringsattachedyarns.com\/", "lbl": "Strings Attached 225 N. Main St. Dayton, Ohio 45402 937-221-9585 http:\/\/stringsattachedyarns.com\/", "lat": -84.192924775500003, "lon": 39.763237128299998 }, "bbox": [ -84.19292478, 39.76323713, -84.19292478, 39.76323713 ], "geometry": { "type": "Point", "coordinates": [ -84.19292478, 39.76323713 ] } },
{ "type": "Feature", "properties": { "StoreName": "The Busy Thimble", "Address": "148 S. Main St.", "City": "Bowling Green", "State": "Ohio", "Zip": "43402", "st": "o", "Phone": "419-806-4022", "Site": "https:\/\/www.busythimble.com\/", "lbl": "The Busy Thimble 148 S. Main St. Bowling Green, Ohio 43402 419-806-4022 https:\/\/www.busythimble.com\/", "lat": -83.650476589899995, "lon": 41.374016245599996 }, "bbox": [ -83.65047659, 41.37401625, -83.65047659, 41.37401625 ], "geometry": { "type": "Point", "coordinates": [ -83.65047659, 41.37401625 ] } },
{ "type": "Feature", "properties": { "StoreName": "The Fifth Stitch", "Address": "300 Clinton St.", "City": "Defiance", "State": "Ohio", "Zip": "43512", "st": "o", "Phone": "419-782-0991", "Site": "http:\/\/fifthstitch.com\/", "lbl": "The Fifth Stitch 300 Clinton St. Defiance, Ohio 43512 419-782-0991 http:\/\/fifthstitch.com\/", "lat": -84.362242042899993, "lon": 41.286593671399999 }, "bbox": [ -84.36224204, 41.28659367, -84.36224204, 41.28659367 ], "geometry": { "type": "Point", "coordinates": [ -84.36224204, 41.28659367 ] } },
{ "type": "Feature", "properties": { "StoreName": "The Knitter's Nest", "Address": "5922 S Main St", "City": "Clarkston", "State": "Michigan", "Zip": "48346", "st": "m", "Phone": "248-707-6442", "Site": "https:\/\/theknittersnest.com\/", "lbl": "The Knitter's Nest 5922 S Main St Clarkston, Michigan 48346 248-707-6442 https:\/\/theknittersnest.com\/", "lat": -83.418672621699997, "lon": 42.725204643799998 }, "bbox": [ -83.41867262, 42.72520464, -83.41867262, 42.72520464 ], "geometry": { "type": "Point", "coordinates": [ -83.41867262, 42.72520464 ] } },
{ "type": "Feature", "properties": { "StoreName": "The Little Yarn Shoppe", "Address": "7075 Gratiot Rd., Ste. 4", "City": "Saginaw", "State": "Michigan", "Zip": "48609", "st": "m", "Phone": "989-274-8571", "Site": "https:\/\/theknittersnest.com\/", "lbl": "The Little Yarn Shoppe 7075 Gratiot Rd., Ste. 4 Saginaw, Michigan 48609 989-274-8571 https:\/\/theknittersnest.com\/", "lat": -84.053211295899999, "lon": 43.415678334799999 }, "bbox": [ -84.0532113, 43.41567833, -84.0532113, 43.41567833 ], "geometry": { "type": "Point", "coordinates": [ -84.0532113, 43.41567833 ] } },
{ "type": "Feature", "properties": { "StoreName": "The Rabbit Hutch", "Address": "5 North Walut St.", "City": "Englewood", "State": "Ohio", "Zip": "45322", "st": "o", "Phone": "937-540-9292", "Site": "http:\/\/www.rabbithutchbeads.com\/", "lbl": "The Rabbit Hutch 5 North Walut St. Englewood, Ohio 45322 937-540-9292 http:\/\/www.rabbithutchbeads.com\/", "lat": -84.303536876799996, "lon": 39.878456720700001 }, "bbox": [ -84.30353688, 39.87845672, -84.30353688, 39.87845672 ], "geometry": { "type": "Point", "coordinates": [ -84.30353688, 39.87845672 ] } },
{ "type": "Feature", "properties": { "StoreName": "The Wool and The Floss", "Address": "397 Fisher Rd.", "City": "Grosse Pointe", "State": "Michigan", "Zip": "48230", "st": "m", "Phone": "313-882-9110", "Site": "http:\/\/www.thewoolandthefloss.net\/", "lbl": "The Wool and The Floss 397 Fisher Rd. Grosse Pointe, Michigan 48230 313-882-9110 http:\/\/www.thewoolandthefloss.net\/", "lat": -82.904277161500005, "lon": 42.391163169199999 }, "bbox": [ -82.90427716, 42.39116317, -82.90427716, 42.39116317 ], "geometry": { "type": "Point", "coordinates": [ -82.90427716, 42.39116317 ] } },
{ "type": "Feature", "properties": { "StoreName": "The Wooly Bully Yarn Company", "Address": "135 S. Main St.", "City": "Springboro Ohio", "State": "Ohio", "Zip": "45066", "st": "o", "Phone": "937-748-1002", "Site": "https:\/\/www.facebook.com\/woolybullyyarncompany", "lbl": "The Wooly Bully Yarn Company 135 S. Main St. Springboro Ohio, Ohio 45066 937-748-1002 https:\/\/www.facebook.com\/woolybullyyarncompany", "lat": -84.233237277499995, "lon": 39.5547309321 }, "bbox": [ -84.23323728, 39.55473093, -84.23323728, 39.55473093 ], "geometry": { "type": "Point", "coordinates": [ -84.23323728, 39.55473093 ] } },
{ "type": "Feature", "properties": { "StoreName": "The Yarn Haven", "Address": "464 N. Cedar Bluff Rd", "City": "Knoxville", "State": "Tennessee", "Zip": "37923", "st": "t", "Phone": "865-694-9900", "Site": "http:\/\/www.theyarnhaven.com\/", "lbl": "The Yarn Haven 464 N. Cedar Bluff Rd Knoxville, Tennessee 37923 865-694-9900 http:\/\/www.theyarnhaven.com\/", "lat": -84.094153324700002, "lon": 35.925509551899999 }, "bbox": [ -84.09415332, 35.92550955, -84.09415332, 35.92550955 ], "geometry": { "type": "Point", "coordinates": [ -84.09415332, 35.92550955 ] } },
{ "type": "Feature", "properties": { "StoreName": "The Yarn Patch", "Address": "1771 Peavine Rd. Unit 102", "City": "Crossville", "State": "Tennessee", "Zip": "38571", "st": "t", "Phone": "931-707-1255", "Site": "https:\/\/yarnpatch.com\/", "lbl": "The Yarn Patch 1771 Peavine Rd. Unit 102 Crossville, Tennessee 38571 931-707-1255 https:\/\/yarnpatch.com\/", "lat": -84.967933652900001, "lon": 35.978383505899998 }, "bbox": [ -84.96793365, 35.97838351, -84.96793365, 35.97838351 ], "geometry": { "type": "Point", "coordinates": [ -84.96793365, 35.97838351 ] } },
{ "type": "Feature", "properties": { "StoreName": "The Yarn Shop", "Address": "1125 Kenny Centre Mall", "City": "Columbus", "State": "Ohio", "Zip": "43220", "st": "o", "Phone": "614-457-7836", "Site": "http:\/\/www.theyarnshoponline.com\/", "lbl": "The Yarn Shop 1125 Kenny Centre Mall Columbus, Ohio 43220 614-457-7836 http:\/\/www.theyarnshoponline.com\/", "lat": -83.049925943100007, "lon": 40.048999272899998 }, "bbox": [ -83.04992594, 40.04899927, -83.04992594, 40.04899927 ], "geometry": { "type": "Point", "coordinates": [ -83.04992594, 40.04899927 ] } },
{ "type": "Feature", "properties": { "StoreName": "The Yarn Stop", "Address": "25 S. Main St.", "City": "Clawson", "State": "Michigan", "Zip": "48017", "st": "m", "Phone": "248-808-6630", "Site": "http:\/\/www.theyarnhaven.com\/", "lbl": "The Yarn Stop 25 S. Main St. Clawson, Michigan 48017 248-808-6630 http:\/\/www.theyarnhaven.com\/", "lat": -83.146132983900003, "lon": 42.5328574292 }, "bbox": [ -83.14613298, 42.53285743, -83.14613298, 42.53285743 ], "geometry": { "type": "Point", "coordinates": [ -83.14613298, 42.53285743 ] } },
{ "type": "Feature", "properties": { "StoreName": "Tippecanoe Weaver and Fiber Too", "Address": "17 N 2nd Street", "City": "Tipp City", "State": "Ohio", "Zip": "45371", "st": "o", "Phone": "937-667-5358", "Site": "https:\/\/www.tippweaveyarn.com\/", "lbl": "Tippecanoe Weaver and Fiber Too 17 N 2nd Street Tipp City, Ohio 45371 937-667-5358 https:\/\/www.tippweaveyarn.com\/", "lat": -84.169987316999993, "lon": 39.961772717000002 }, "bbox": [ -84.16998732, 39.96177272, -84.16998732, 39.96177272 ], "geometry": { "type": "Point", "coordinates": [ -84.16998732, 39.96177272 ] } },
{ "type": "Feature", "properties": { "StoreName": "Unwind Yarn Shop", "Address": "9912 E. Grand Ave.", "City": "Brighton", "State": "Michigan", "Zip": "48116", "st": "m", "Phone": "810-229-5579", "Site": "http:\/\/unwindyarnshopmn.com\/", "lbl": "Unwind Yarn Shop 9912 E. Grand Ave. Brighton, Michigan 48116 810-229-5579 http:\/\/unwindyarnshopmn.com\/", "lat": -83.763410078999996, "lon": 42.521870917199998 }, "bbox": [ -83.76341008, 42.52187092, -83.76341008, 42.52187092 ], "geometry": { "type": "Point", "coordinates": [ -83.76341008, 42.52187092 ] } },
{ "type": "Feature", "properties": { "StoreName": "WoollyandCo.", "Address": "147 Pierce St.", "City": "Birmingham", "State": "Michigan", "Zip": "48009", "st": "m", "Phone": "248-480-4354", "Site": "http:\/\/woollyandco.com\/", "lbl": "WoollyandCo. 147 Pierce St. Birmingham, Michigan 48009 248-480-4354 http:\/\/woollyandco.com\/", "lat": -83.2149125368, "lon": 42.546371392200001 }, "bbox": [ -83.21491254, 42.54637139, -83.21491254, 42.54637139 ], "geometry": { "type": "Point", "coordinates": [ -83.21491254, 42.54637139 ] } },
{ "type": "Feature", "properties": { "StoreName": "Yarn Envy", "Address": "4570 W. Sterns", "City": "Ottawa Lake", "State": "Michigan", "Zip": "49267", "st": "m", "Phone": "734-856-1015", "Site": "http:\/\/www.yarnenvy.com\/", "lbl": "Yarn Envy 4570 W. Sterns Ottawa Lake, Michigan 49267 734-856-1015 http:\/\/www.yarnenvy.com\/", "lat": -83.653871997099998, "lon": 41.748627147900002 }, "bbox": [ -83.653872, 41.74862715, -83.653872, 41.74862715 ], "geometry": { "type": "Point", "coordinates": [ -83.653872, 41.74862715 ] } },
{ "type": "Feature", "properties": { "StoreName": "Yarn Hoppers", "Address": "136 E. Maumee St. Suite 5", "City": "Adrian", "State": "Michigan", "Zip": "49221", "st": "m", "Phone": "517-759-3240", "Site": "http:\/\/www.yarnenvy.com\/", "lbl": "Yarn Hoppers 136 E. Maumee St. Suite 5 Adrian, Michigan 49221 517-759-3240 http:\/\/www.yarnenvy.com\/", "lat": -84.035623180100004, "lon": 41.898528367099999 }, "bbox": [ -84.03562318, 41.89852837, -84.03562318, 41.89852837 ], "geometry": { "type": "Point", "coordinates": [ -84.03562318, 41.89852837 ] } },
{ "type": "Feature", "properties": { "StoreName": "Yarn It and Haberdashery", "Address": "1093 W. 1st Ave.", "City": "Grandview Heights", "State": "Ohio", "Zip": "43212", "st": "o", "Phone": "614-736-6464", "Site": "http:\/\/yarnitanddash.com\/", "lbl": "Yarn It and Haberdashery 1093 W. 1st Ave. Grandview Heights, Ohio 43212 614-736-6464 http:\/\/yarnitanddash.com\/", "lat": -83.033671280099995, "lon": 39.979798492500002 }, "bbox": [ -83.03367128, 39.97979849, -83.03367128, 39.97979849 ], "geometry": { "type": "Point", "coordinates": [ -83.03367128, 39.97979849 ] } },
{ "type": "Feature", "properties": { "StoreName": "Yesterday's Ewe", "Address": "66 S. Main St.", "City": "London", "State": "Ohio", "Zip": "43140", "st": "o", "Phone": "740-845-8840", "Site": "http:\/\/www.yesterdaysewes.com\/", "lbl": "Yesterday's Ewe 66 S. Main St. London, Ohio 43140 740-845-8840 http:\/\/www.yesterdaysewes.com\/", "lat": -83.447122940499995, "lon": 39.885122021599997 }, "bbox": [ -83.44712294, 39.88512202, -83.44712294, 39.88512202 ], "geometry": { "type": "Point", "coordinates": [ -83.44712294, 39.88512202 ] } }
]
}
